[{
  "Name": "Joseph",
  "Address": "21st Street Broadway New York, NY",
  "Lat": 40.7630338,
  "Lon": -73.9337678,
  "Text": "",
  "Image": "",
  "Video": "https://onstack.org/embed/stack/39?s=13"
},
{
  "Name": "",
  "Address": "23rd Street 5th Ave New York, NY",
  "Lat": 40.7415465,
  "Lon": -73.9889978,
  "Text": "",
  "Image": "",
  "Video": "https://onstack.org/embed/stack/39?s=9"
},
{
  "Name": "",
  "Address": "51st Street 5th Avenue New York, NY",
  "Lat": 40.7584653,
  "Lon": -73.9759927,
  "Text": "",
  "Image": "",
  "Video": "https://onstack.org/embed/stack/39?s=11"
},
{
  "Name": "",
  "Address": "53rd St Broadway New York, NY",
  "Lat": 40.7629724,
  "Lon": -73.9819048,
  "Text": "",
  "Image": "",
  "Video": "https://onstack.org/embed/stack/39?s=12"
},
{
  "Name": "",
  "Address": "53rd Street 7th Ave New York, NY",
  "Lat": 40.762468,
  "Lon": -73.981557,
  "Text": "",
  "Image": "",
  "Video": "https://onstack.org/embed/stack/39?s=8"
},
{
  "Name": "Sarah Bednarek",
  "Address": "Brooklyn, NY",
  "Lat": 40.6781784,
  "Lon": -73.9441579,
  "Text": "",
  "Image": "",
  "Video": "https://www.youtube.com/watch?v=3HHettrFDFc"
},
{
  "Name": "",
  "Address": "Williamsburg Brooklyn, NY",
  "Lat": 40.7081156,
  "Lon": -73.9570696,
  "Text": "",
  "Image": "",
  "Video": "https://onstack.org/embed/stack/39?s=2"
},
{
  "Name": "Zack",
  "Address": "Ridgewood Queens, NY",
  "Lat": 40.7043986,
  "Lon": -73.9018292,
  "Text": "",
  "Image": "",
  "Video": "https://onstack.org/embed/stack/39?s=3"
},
{
  "Name": "Cheryl",
  "Address": "Greenpoint, NY",
  "Lat": 40.7245448,
  "Lon": -73.9418603,
  "Text": "",
  "Image": "",
  "Video": "https://onstack.org/embed/stack/39?s=10"
},
{
  "Name": "",
  "Address": "Bushwick Brooklyn",
  "Lat": 40.6944282,
  "Lon": -73.9212858,
  "Text": "",
  "Image": "",
  "Video": "https://onstack.org/embed/stack/39?s=6"
},
{
  "Name": "Louise Sherman",
  "Address": "Chappaqua, NY",
  "Lat": 41.1595399,
  "Lon": -73.764855,
  "Text": "",
  "Image": "",
  "Video": "https://onstack.org/embed/stack/39?s=3"
},
{
  "Name": "",
  "Address": "New York, NY",
  "Lat": 40.7127837,
  "Lon": -74.0059413,
  "Text": "",
  "Image": "",
  "Video": "https://onstack.org/embed/stack/39?s=7"
},
{
  "Name": "",
  "Address": "Westchester, NY",
  "Lat": 41.1220194,
  "Lon": -73.7948516,
  "Text": "",
  "Image": "",
  "Video": "https://onstack.org/embed/stack/39?s=4"
}
]
